City_ID,City,Lat,Lng,Max Temp,Humidity,Cloudiness,Wind Speed,Country,Date
0,port-aux-francais,-49.35,70.2167,41.31,98,100,18.99,TF,overcast clouds
1,iskateley,67.6803,53.1512,10.02,90,81,8.01,RU,broken clouds
2,tarnogskiy gorodok,60.4997,43.5761,25.5,90,95,8.55,RU,light snow
3,adamstown,-25.066,-130.1015,72.9,81,99,13.42,PN,light rain
4,walvis bay,-22.9575,14.5053,65.35,63,6,8.05,NA,clear sky
5,puerto natales,-51.7236,-72.4875,41.45,70,75,5.75,CL,broken clouds
6,grytviken,-54.2811,-36.5092,31.03,97,100,3.4,GS,snow
7,alofi,-19.0595,-169.9187,73.29,73,78,8.05,NU,broken clouds
8,caxito,-8.5785,13.6643,80.94,73,81,7.54,AO,broken clouds
9,miyako,39.6367,141.9525,55.62,95,81,8.12,JP,light rain
10,invercargill,-46.4,168.35,41.02,94,46,1.99,NZ,scattered clouds
11,grand falls-windsor,48.9332,-55.6649,55.51,96,100,1.01,CA,overcast clouds
12,kingston,17.997,-76.7936,88.25,66,40,9.22,JM,scattered clouds
13,tarija,-21.5355,-64.7296,85.91,26,64,6.91,BO,broken clouds
14,qingdao,36.0986,120.3719,53.2,94,0,4.47,CN,clear sky
15,afaahiti,-17.75,-149.2833,78.67,75,100,6.42,PF,overcast clouds
16,vorgashor,67.5833,63.95,4.3,100,97,2.53,RU,overcast clouds
17,ciudad lazaro cardenas,17.9583,-102.2,84.18,69,98,1.14,MX,overcast clouds
18,talnakh,69.4865,88.3972,4.21,92,78,1.99,RU,broken clouds
19,zemio,5.0314,25.1361,69.4,95,61,2.28,CF,broken clouds
20,bilibino,68.0546,166.4372,-7.89,99,65,1.74,RU,broken clouds
21,west island,-12.1568,96.8225,78.78,78,40,21.85,CC,scattered clouds
22,tazovsky,67.4667,78.7,6.93,91,59,11.07,RU,broken clouds
23,olonkinbyen,70.9221,-8.7187,30.51,76,94,6.13,SJ,overcast clouds
24,cabo san lucas,22.8909,-109.9124,82.76,55,0,3.44,MX,clear sky
25,anadyr,64.75,177.4833,34.3,100,100,13.42,RU,light rain
26,box elder,41.5005,-112.8764,40.26,48,0,16.69,US,clear sky
27,ribeira grande,38.5167,-28.7,66.6,63,40,19.57,PT,scattered clouds
28,irece,-11.3042,-41.8558,97.47,17,19,16.17,BR,few clouds
29,nova sintra,14.8667,-24.7167,75.49,75,38,15.95,CV,scattered clouds
30,buy,58.4786,41.53,28.67,92,96,8.59,RU,overcast clouds
31,howrah,22.5892,88.3103,77.0,78,20,0.0,IN,haze
32,pisco,-13.7,-76.2167,71.65,73,40,11.5,PE,scattered clouds
33,ramnagar,29.4,79.1167,65.34,57,100,4.5,IN,overcast clouds
34,hamilton,39.1834,-84.5333,61.43,93,100,8.05,US,mist
35,port mathurin,-19.6833,63.4167,76.1,79,18,8.86,MU,few clouds
36,lebu,-37.6167,-73.65,52.88,88,100,21.39,CL,overcast clouds
37,vize,41.5725,27.7658,71.64,82,9,8.28,TR,clear sky
38,bloemhof,-27.6469,25.607,73.98,16,16,18.99,ZA,few clouds
39,ancud,-41.8697,-73.8203,47.68,73,86,28.07,CL,light rain
40,blackmans bay,-43.0167,147.3167,48.72,74,64,3.0,AU,broken clouds
41,duba,27.3513,35.6901,82.8,55,98,7.45,SA,overcast clouds
42,tyuratam,45.6507,63.3156,55.81,64,51,4.14,KZ,broken clouds
43,kuytun,54.3419,101.5036,20.39,79,87,5.14,RU,overcast clouds
44,papatowai,-46.5619,169.4708,41.05,90,28,5.66,NZ,scattered clouds
45,umluj,25.0213,37.2685,85.19,53,71,10.54,SA,broken clouds
46,sur,22.5667,59.5289,82.65,59,94,2.35,OM,overcast clouds
47,crane,31.3974,-102.3501,73.96,71,94,21.27,US,overcast clouds
48,lata,40.1629,-8.3327,62.08,90,97,10.98,PT,light rain
49,keflavik,64.0049,-22.5624,41.43,70,0,3.44,IS,clear sky
50,lazaro cardenas,17.9583,-102.2,84.67,68,98,3.15,MX,overcast clouds
51,poso,-1.3959,120.7524,75.6,65,83,5.5,ID,broken clouds
52,sinabang,2.4803,96.3801,78.62,86,98,2.3,ID,overcast clouds
53,pacific grove,36.6177,-121.9166,61.41,76,0,11.01,US,clear sky
54,kharan,28.5833,65.4167,76.77,31,6,0.89,PK,clear sky
55,longyearbyen,78.2186,15.6401,26.44,93,75,6.91,SJ,light snow
56,tiksi,71.6872,128.8694,12.74,91,100,7.29,RU,overcast clouds
57,changji,44.0167,87.3167,45.39,57,0,2.24,CN,clear sky
58,fort st. john,56.2499,-120.8529,21.09,79,40,4.61,CA,mist
59,ahmadnagar,19.0833,74.7333,72.36,40,0,5.97,IN,clear sky
60,yellowknife,62.456,-114.3525,32.41,100,75,12.66,CA,light snow
61,bethel,41.3712,-73.414,80.89,60,0,11.5,US,clear sky
62,saint-leu,-21.15,55.2833,76.06,97,14,6.4,RE,few clouds
63,port elizabeth,-33.918,25.5701,57.49,84,100,10.36,ZA,light rain
64,pacasmayo,-7.4006,-79.5714,69.85,76,100,12.44,PE,overcast clouds
65,avarua,-21.2078,-159.775,71.65,68,55,6.91,CK,broken clouds
66,nar'yan-mar,67.6713,53.087,10.11,90,82,8.01,RU,broken clouds
67,auki,-8.7676,160.7034,76.84,90,99,3.6,SB,overcast clouds
68,brezina,33.0989,1.2608,73.65,24,100,6.85,DZ,overcast clouds
69,college,64.8569,-147.8028,13.44,83,75,0.0,US,broken clouds
70,tome acu,-2.4189,-48.1522,104.22,23,4,5.77,BR,clear sky
71,midoun,33.8081,10.9923,78.66,61,100,9.93,TN,overcast clouds
72,lluta,-16.0147,-72.0142,57.18,55,48,12.17,PE,scattered clouds
73,sitka,57.0531,-135.33,42.69,81,100,8.05,US,overcast clouds
74,waitangi,-43.9535,-176.5597,48.81,87,42,8.99,NZ,light rain
75,ingeniero guillermo n. juarez,-23.9,-61.85,86.45,58,90,0.94,AR,overcast clouds
76,georgetown,5.4112,100.3354,78.73,97,20,5.01,MY,few clouds
77,nemuro,43.3236,145.575,53.24,76,47,5.95,JP,scattered clouds
78,la'ie,21.6477,-157.9253,78.04,87,21,5.7,US,few clouds
79,tadine,-21.55,167.8833,71.55,88,3,7.47,NC,clear sky
80,albany,42.6001,-73.9662,73.94,67,35,5.01,US,scattered clouds
81,remire-montjoly,4.9167,-52.2667,93.24,59,0,12.66,GF,clear sky
82,pecos,31.4229,-103.4932,74.23,60,0,8.05,US,clear sky
83,mae hong son,19.3003,97.9685,73.17,93,100,1.16,TH,overcast clouds
84,rakvere,59.3464,26.3558,32.74,87,100,6.51,EE,overcast clouds
85,praia da vitoria,38.7333,-27.0667,66.45,59,20,19.53,PT,few clouds
86,saint-joseph,-21.3667,55.6167,75.58,85,26,8.86,RE,scattered clouds
87,amungan,15.3652,119.9582,79.39,81,64,5.46,PH,broken clouds
88,soio,-6.1349,12.3689,79.12,84,23,10.0,AO,few clouds
89,vorkuta,67.5,64.0,5.7,99,97,3.71,RU,overcast clouds
90,isafjordur,66.0755,-23.124,37.44,81,20,3.44,IS,few clouds
91,san patricio,28.017,-97.5169,89.69,57,14,14.7,US,few clouds
92,kasama,-10.2129,31.1808,77.68,38,91,4.07,ZM,overcast clouds
93,edinburgh of the seven seas,-37.0676,-12.3116,57.42,91,100,18.21,SH,overcast clouds
94,la ronge,55.1001,-105.2842,23.25,80,75,6.91,CA,broken clouds
95,winnemucca,40.973,-117.7357,35.65,51,0,11.5,US,clear sky
96,idri,27.5,13.2667,80.55,17,13,7.7,LY,few clouds
97,chandler,33.3062,-111.8412,81.05,37,0,8.05,US,clear sky
98,ta`u,-14.2336,-169.5144,79.63,82,48,15.5,AS,light rain
99,nogliki,51.8333,143.1667,36.34,73,36,7.0,RU,scattered clouds
100,jamestown,42.097,-79.2353,56.01,85,100,10.36,US,overcast clouds
101,tolanaro,-25.0319,46.9987,77.07,78,40,21.85,MG,scattered clouds
102,waupaca,44.358,-89.086,41.09,71,100,0.0,US,overcast clouds
103,yamada,39.4667,141.95,55.45,93,69,9.57,JP,light rain
104,atafu village,-8.5421,-172.5159,82.99,71,42,7.07,TK,light rain
105,thompson,55.7435,-97.8558,23.16,100,100,4.61,CA,light snow
106,chonchi,-42.6128,-73.8092,49.21,75,77,14.56,CL,light rain
107,carnarvon,-24.8667,113.6333,67.71,69,6,24.32,AU,clear sky
108,utrik,11.2278,169.8474,83.07,75,90,16.8,MH,overcast clouds
109,las lomitas,-24.7096,-60.593,82.11,73,96,4.99,AR,overcast clouds
110,frankfort,-27.2667,28.4833,67.3,47,100,12.5,ZA,overcast clouds
111,las tablas,7.7667,-80.2833,84.67,71,99,2.24,PA,light rain
112,al abyar,32.19,20.5965,70.74,65,55,4.5,LY,broken clouds
113,kodiak,57.79,-152.4072,45.91,93,100,5.75,US,overcast clouds
114,chilapa de alvarez,17.6,-99.1667,75.22,58,91,5.08,MX,overcast clouds
115,yemetsk,63.4721,41.7941,25.77,83,100,7.14,RU,light snow
116,yaren,-0.5472,166.916,82.24,72,87,4.63,NR,overcast clouds
117,ghorawal,24.7667,82.7833,68.61,51,12,4.21,IN,few clouds
118,colonia,50.9333,6.95,56.12,80,100,10.36,DE,overcast clouds
119,ushuaia,-54.8,-68.3,44.26,45,0,11.5,AR,clear sky
120,udachny,66.4167,112.4,10.45,84,76,8.32,RU,broken clouds
121,cradock,-32.1642,25.6192,48.29,77,96,19.6,ZA,overcast clouds
122,enewetak,11.3474,162.3373,82.96,73,81,7.63,MH,moderate rain
123,daru,-9.0763,143.2092,77.32,90,99,15.08,PG,moderate rain
124,geraldton,-28.7667,114.6,59.41,77,0,14.97,AU,clear sky
125,buka,40.8108,69.1986,69.98,37,100,1.59,UZ,overcast clouds
126,meadow lakes,61.6247,-149.6011,34.63,71,0,0.0,US,clear sky
127,punta arenas,-53.15,-70.9167,44.71,42,0,5.75,CL,clear sky
128,antonio enes,-16.2325,39.9086,78.8,84,0,12.91,MZ,clear sky
129,hameenkyro,61.6391,23.1953,29.17,84,32,3.56,FI,scattered clouds
130,hornsea,53.9104,-0.1681,54.1,93,100,5.75,GB,mist
131,luderitz,-26.6481,15.1594,68.72,48,0,32.3,NA,clear sky
132,emerald,-23.5333,148.1667,62.35,68,48,10.58,AU,scattered clouds
133,san antonio de pale,-1.4014,5.6325,79.43,79,10,9.31,GQ,clear sky
134,port alfred,-33.5906,26.891,54.18,93,87,4.0,ZA,light rain
135,bougouni,11.417,-7.479,83.17,52,74,3.91,ML,broken clouds
136,holualoa,19.6228,-155.9522,77.86,70,20,8.01,US,few clouds
137,malabar,-33.9667,151.25,58.12,75,35,5.75,AU,scattered clouds
138,bredasdorp,-34.5322,20.0403,56.28,55,94,13.33,ZA,overcast clouds
139,siocon,7.7061,122.1353,78.22,88,21,1.88,PH,few clouds
140,verkhniy tagil,57.3733,59.9556,24.98,90,100,9.31,RU,overcast clouds
141,baoding,38.8511,115.4903,57.56,47,59,5.01,CN,broken clouds
142,along,28.1667,94.7667,62.31,86,1,1.72,IN,clear sky
143,al jawf,29.5,38.75,66.42,77,99,15.9,SA,moderate rain
144,kavaratti,10.5669,72.642,83.93,67,80,2.66,IN,broken clouds
145,aasiaat,68.7098,-52.8699,17.31,92,76,11.18,GL,broken clouds
146,hermanus,-34.4187,19.2345,56.26,67,68,18.01,ZA,broken clouds
147,margaret river,-33.95,115.0667,58.59,80,100,12.39,AU,light rain
148,puerto ayora,-0.7393,-90.3518,82.36,86,99,13.0,EC,overcast clouds
149,hithadhoo,-0.6,73.0833,80.69,83,38,17.81,MV,scattered clouds
150,zhengzhou,34.7578,113.6486,54.09,42,0,3.91,CN,clear sky
151,baiti,13.745,-14.7482,93.09,41,58,7.27,SN,broken clouds
152,katsuura,35.1333,140.3,62.33,74,8,9.73,JP,clear sky
153,hawaiian paradise park,19.5933,-154.9731,75.04,79,40,5.75,US,scattered clouds
154,whitehorse,60.7161,-135.0538,20.17,92,100,10.36,CA,mist
155,igarka,67.4667,86.5833,5.54,94,86,4.63,RU,overcast clouds
156,kingsville,27.5159,-97.8561,89.78,63,0,14.97,US,clear sky
157,vadso,70.0744,29.7487,30.36,80,100,10.36,NO,overcast clouds
158,sechura,-5.5569,-80.8222,78.6,61,88,8.3,PE,overcast clouds
159,mana,5.6592,-53.7767,89.02,64,59,14.14,GF,broken clouds
160,ponta delgada,37.7333,-25.6667,68.18,72,20,12.66,PT,few clouds
161,noumea,-22.2763,166.4572,69.78,83,52,11.79,NC,broken clouds
162,ostersund,63.1792,14.6357,28.62,74,100,9.22,SE,overcast clouds
163,mount isa,-20.7333,139.5,69.57,14,7,4.61,AU,clear sky
164,kapuskasing,49.4169,-82.4331,28.49,80,100,12.66,CA,light snow
165,boali,4.8005,18.1275,74.1,89,61,2.1,CF,broken clouds
166,ribeira brava,32.65,-17.0667,74.03,70,58,4.97,PT,broken clouds
167,atasu,48.6814,71.6433,39.34,94,100,10.54,KZ,moderate rain
168,kaufman,32.589,-96.3089,68.68,92,100,5.75,US,overcast clouds
169,queenstown,-31.8976,26.8753,48.09,76,100,10.49,ZA,overcast clouds
170,kidal,18.4411,1.4078,89.76,9,21,9.28,ML,few clouds
171,antalaha,-14.9003,50.2788,74.39,87,17,3.09,MG,few clouds
172,mishkino,55.3389,63.9175,25.38,89,100,9.66,RU,overcast clouds
173,roma,43.2128,-75.4557,59.58,82,100,13.8,US,overcast clouds
174,huarmey,-10.0681,-78.1522,72.97,73,78,13.11,PE,broken clouds
175,pyetrykaw,52.1289,28.4921,43.99,88,100,9.89,BY,overcast clouds
176,tamanrasset,22.785,5.5228,82.31,13,40,4.61,DZ,scattered clouds
177,hasaki,35.7333,140.8333,54.0,68,8,12.64,JP,clear sky
178,kolpashevo,58.3131,82.9089,19.11,89,58,5.01,RU,broken clouds
179,ternate,0.8,127.4,79.86,75,99,7.36,ID,overcast clouds
180,saks,33.6987,-85.8397,80.6,55,0,5.75,US,clear sky
181,vilyuysk,63.7553,121.6247,27.0,95,100,4.0,RU,overcast clouds
182,dyersburg,36.0345,-89.3856,74.28,68,0,6.91,US,clear sky
183,san fernando de apure,7.8878,-67.4724,89.46,63,96,4.0,VE,overcast clouds
184,chinde,26.8418,88.0763,57.76,78,66,3.58,NP,broken clouds
185,suwayr,30.1171,40.3893,79.74,25,97,10.33,SA,overcast clouds
186,piton saint-leu,-21.2196,55.3151,73.51,73,0,6.91,RE,clear sky
187,codrington,-38.2667,141.9667,41.02,92,96,7.07,AU,overcast clouds
188,saurimo,-9.6608,20.3916,71.29,65,36,2.46,AO,scattered clouds
189,muroto-misakicho,33.2833,134.15,62.91,62,3,12.57,JP,clear sky
190,boa vista,2.8197,-60.6733,94.98,43,75,10.36,BR,broken clouds
191,stanley,54.868,-1.6985,48.52,95,75,9.22,GB,broken clouds
192,lingcheng,22.7072,110.3492,74.68,85,92,0.4,CN,overcast clouds
193,anna regina,7.2644,-58.5077,87.19,61,74,7.85,GY,broken clouds
194,santana,-0.0583,-51.1817,95.18,46,40,11.5,BR,scattered clouds
195,east london,-33.0153,27.9116,56.34,94,100,13.8,ZA,moderate rain
196,nouadhibou,20.931,-17.0347,76.98,65,0,17.27,MR,clear sky
197,terenozek,45.05,64.9833,54.82,58,72,3.58,KZ,broken clouds
198,motueka,-41.1333,173.0167,43.11,80,21,5.06,NZ,few clouds
199,iqaluit,63.7506,-68.5145,13.73,78,20,9.22,CA,few clouds
200,mount gambier,-37.8333,140.7667,41.29,92,94,4.12,AU,overcast clouds
201,betio village,1.358,172.9211,80.64,75,19,11.81,KI,few clouds
202,cill airne,52.05,-9.5167,51.85,87,20,10.36,IE,few clouds
203,moorhead,46.8739,-96.7676,26.98,77,0,10.36,US,clear sky
204,susuman,62.7833,148.1667,0.99,99,91,1.01,RU,overcast clouds
205,tinogasta,-28.0632,-67.5649,90.07,5,0,10.33,AR,clear sky
206,inhambane,-23.865,35.3833,75.18,78,20,12.66,MZ,few clouds
207,smithers,54.7804,-127.1743,17.92,93,0,3.44,CA,clear sky
208,abepura,-2.6333,140.5833,83.21,70,40,5.75,ID,light rain
209,acapulco de juarez,16.8634,-99.8901,84.4,73,100,5.7,MX,overcast clouds
210,necochea,-38.5473,-58.7368,79.29,38,47,14.25,AR,scattered clouds
211,fort mcmurray,56.7268,-111.381,24.39,86,100,5.75,CA,light snow
212,willowmore,-33.2926,23.4895,48.51,67,67,15.3,ZA,broken clouds
213,horta,38.5333,-28.6333,65.84,67,40,19.57,PT,scattered clouds
214,labytnangi,66.6572,66.4183,10.99,89,78,4.27,RU,broken clouds
215,kargasok,59.0556,80.8572,11.97,97,60,5.01,RU,broken clouds
216,ulsteinvik,62.3432,5.8487,40.75,72,0,5.99,NO,clear sky
217,myeik,12.4333,98.6,78.67,85,56,0.49,MM,light rain
218,la passe,45.5549,-0.8967,63.01,67,100,25.43,FR,light rain
219,markovo,57.3206,107.0881,23.0,56,28,9.64,RU,scattered clouds
220,santiago de cao,-7.9589,-79.2392,69.93,78,20,10.36,PE,few clouds
221,gadzhiyevo,69.2551,33.3362,24.3,88,100,3.76,RU,overcast clouds
222,kirakira,-10.4544,161.9205,77.79,86,86,6.76,SB,overcast clouds
223,lihue,21.9789,-159.3672,70.84,77,0,9.22,US,clear sky
224,uturoa,-16.7333,-151.4333,78.42,79,98,11.59,PF,light rain
225,pasuquin,18.3328,120.6177,77.56,78,8,7.58,PH,clear sky
226,taoudenni,22.6783,-3.9836,99.68,8,0,4.74,ML,clear sky
227,mooloolaba,-26.6833,153.1167,62.06,86,84,1.01,AU,light rain
228,velikiy novgorod,58.5167,31.2833,35.13,78,100,6.89,RU,overcast clouds
229,kabinda,-6.1333,24.4833,70.81,84,97,1.5,CD,light rain
230,fortuna,40.5982,-124.1573,50.99,93,0,3.0,US,clear sky
231,waingapu,-9.6567,120.2641,78.3,78,70,3.11,ID,broken clouds
232,gazli,40.1333,63.45,72.09,30,100,6.82,UZ,overcast clouds
233,zambezi,-13.5432,23.1047,76.73,48,63,8.81,ZM,broken clouds
234,yardimli,38.9206,48.2372,63.32,39,56,7.02,AZ,broken clouds
235,palikir - national government center,6.9248,158.1611,74.14,100,100,3.44,FM,light rain
236,qaqortoq,60.7167,-46.0333,33.44,77,17,1.57,GL,few clouds
237,tostado,-29.232,-61.7692,95.92,26,0,9.15,AR,clear sky
238,fale old settlement,-9.3852,-171.2468,82.62,72,44,6.73,TK,moderate rain
239,kayangel,8.0823,134.7173,82.74,71,100,3.06,PW,overcast clouds
240,chom thong,18.4174,98.6743,77.25,94,100,1.92,TH,overcast clouds
241,port augusta,-32.5,137.7667,56.41,79,94,7.49,AU,overcast clouds
242,mahina,-17.5065,-149.489,80.37,74,75,9.22,PF,light rain
243,vetralla,42.3098,12.0784,60.64,89,20,4.61,IT,few clouds
244,karratha,-20.7377,116.8463,80.51,76,48,12.24,AU,light rain
245,sampit,-2.5333,112.95,78.08,83,47,3.51,ID,scattered clouds
246,namibe,-15.1961,12.1522,69.64,79,71,3.67,AO,broken clouds
247,coari,-4.085,-63.1414,102.36,24,100,4.79,BR,overcast clouds
248,berdigestyakh,62.0989,126.6992,27.19,97,100,6.33,RU,snow
249,kalmunai,7.4167,81.8167,78.51,83,98,2.77,LK,overcast clouds
250,marka,1.7159,44.7717,80.58,82,46,12.17,SO,scattered clouds
251,el granada,37.5027,-122.4694,60.57,73,0,3.44,US,clear sky
252,maloye ganyushkino,46.6,49.2667,60.53,78,100,18.99,KZ,overcast clouds
253,khanty-mansiysk,61.0042,69.0019,17.71,73,40,0.0,RU,scattered clouds
254,hyrum,41.6341,-111.8522,41.49,57,100,10.0,US,overcast clouds
255,nuuk,64.1835,-51.7216,27.21,74,0,8.05,GL,clear sky
256,cockburn town,21.4612,-71.1419,82.71,72,19,15.35,TC,few clouds
257,armacao de buzios,-22.7469,-41.8817,78.85,84,100,18.19,BR,overcast clouds
258,tozkhurmato,34.8905,44.6299,77.7,34,26,2.73,IQ,scattered clouds
259,laguna,38.421,-121.4238,60.08,67,0,11.5,US,clear sky
260,mount pearl,47.5166,-52.7813,57.72,98,100,14.97,CA,mist
261,genhe,50.7833,121.5167,33.84,67,63,2.04,CN,broken clouds
262,thinadhoo,0.5333,72.9333,81.07,82,24,18.19,MV,few clouds
263,jalai nur,49.45,117.7,43.45,42,100,14.43,CN,overcast clouds
264,santo antonio,-6.3106,-35.4789,88.2,40,29,18.52,BR,scattered clouds
265,hotan,37.0997,79.9269,58.3,20,55,3.8,CN,broken clouds
266,javea,38.7833,0.1667,71.33,53,1,7.0,ES,clear sky
267,ilulissat,69.2167,-51.1,24.82,80,75,9.22,GL,light snow
268,ust-nera,64.5667,143.2,-0.35,99,100,3.29,RU,overcast clouds
269,mesyagutovo,55.5303,58.2528,29.97,87,98,12.12,RU,overcast clouds
270,badger,64.8,-147.5333,13.35,83,20,0.0,US,few clouds
271,tarauaca,-8.1614,-70.7656,96.66,38,95,6.29,BR,overcast clouds
272,khovd,48.0056,91.6419,28.35,52,79,2.3,MN,broken clouds
273,hilo,19.7297,-155.09,75.61,78,40,5.75,US,scattered clouds
274,petropavlovsk-kamchatsky,53.0452,158.6483,37.45,59,0,8.95,RU,clear sky
275,coquimbo,-29.9533,-71.3436,64.13,63,0,13.8,CL,clear sky
276,palamos,41.8484,3.1291,71.2,46,13,8.01,ES,few clouds
277,saint-philippe,-21.3585,55.7679,76.59,86,43,8.1,RE,scattered clouds
278,saipan,15.1355,145.701,81.3,94,75,4.61,MP,broken clouds
279,bloomfield,40.8068,-74.1854,82.06,56,0,13.8,US,clear sky
280,mutuali,-14.8706,37.0044,85.77,29,68,3.56,MZ,broken clouds
281,coxim,-18.5067,-54.76,99.19,30,93,15.84,BR,overcast clouds
282,ciudad bolivar,8.1222,-63.5497,96.31,38,97,6.06,VE,overcast clouds
283,dudinka,69.4058,86.1778,8.67,99,89,3.0,RU,overcast clouds
284,xilin hot,43.9667,116.0333,46.63,44,37,6.71,CN,scattered clouds
285,bacup,53.7034,-2.2007,51.91,97,97,12.8,GB,overcast clouds
286,tsrar sharif,33.8667,74.7667,50.79,47,5,4.59,IN,clear sky
287,fort bragg,35.139,-79.006,82.65,50,0,5.01,US,clear sky
288,bereznik,62.8551,42.7072,27.16,63,100,8.97,RU,overcast clouds
289,tabou,4.423,-7.3528,79.38,82,17,7.07,CI,few clouds
290,gorshechnoye,51.5244,38.0365,45.45,88,95,28.07,RU,overcast clouds
291,mil'kovo,55.6078,37.7956,32.59,97,100,12.33,RU,snow
292,vila franca do campo,37.7167,-25.4333,67.87,99,95,10.76,PT,overcast clouds
293,vilyuchinsk,52.9306,158.4028,38.93,74,100,4.36,RU,overcast clouds
294,al muwayh,22.4333,41.7583,76.77,45,87,6.8,SA,overcast clouds
295,nizhneangarsk,55.7833,109.55,21.0,54,22,8.01,RU,few clouds
296,san julian,21.0167,-102.1667,72.79,43,35,7.81,MX,scattered clouds
297,ondjiva,-17.0667,15.7333,84.96,15,45,7.0,AO,scattered clouds
298,arraial do cabo,-22.9661,-42.0278,80.56,78,75,14.97,BR,broken clouds
299,garbahaarrey,3.3289,42.2209,80.1,71,90,7.81,SO,light rain
300,touba,8.2833,-7.6833,78.22,74,28,3.31,CI,scattered clouds
301,saint-francois,46.4154,3.9054,60.66,61,0,8.05,FR,clear sky
302,walhain-saint-paul,50.6263,4.6984,54.34,87,75,11.5,BE,light rain
303,vila velha,-20.3297,-40.2925,84.15,74,20,16.11,BR,light rain
304,safford,32.834,-109.7076,74.12,42,0,3.44,US,clear sky
305,port hedland,-20.3167,118.5667,78.85,89,68,5.75,AU,broken clouds
306,mata-utu,-13.2816,-176.1745,80.74,82,56,13.53,WF,light rain
307,bubaque,11.2833,-15.8333,82.09,77,55,9.19,GW,broken clouds
308,haiku-pauwela,20.9219,-156.3051,75.04,84,40,8.05,US,scattered clouds
309,kapoeta,4.7717,33.5903,72.1,86,93,4.23,SS,overcast clouds
310,new norfolk,-42.7826,147.0587,49.91,82,75,3.42,AU,broken clouds
311,shingu,33.7333,135.9833,53.01,80,0,7.83,JP,clear sky
312,happy valley-goose bay,53.3168,-60.3315,35.91,93,100,4.61,CA,overcast clouds
313,port saint john's,-31.6229,29.5448,59.74,86,100,15.39,ZA,moderate rain
314,sao tome,0.3365,6.7273,80.2,81,99,6.04,ST,overcast clouds
315,celestun,20.8667,-90.4,86.25,57,4,13.0,MX,clear sky
316,san andres,12.5847,-81.7006,87.82,70,20,9.22,CO,few clouds
317,robertsport,6.7533,-11.3686,82.17,76,22,8.93,LR,few clouds
318,gagliano del capo,39.8442,18.3695,69.82,83,78,5.75,IT,broken clouds
319,lospalos,-8.5186,127.0025,70.84,95,59,2.59,TL,broken clouds
320,myrina,39.8797,25.0742,69.04,94,0,6.91,GR,clear sky
321,kotma,23.2,81.9667,63.57,59,3,0.85,IN,clear sky
322,northam,51.0333,-4.2167,54.66,93,67,13.33,GB,broken clouds
323,lianran,24.9227,102.485,55.94,93,73,2.01,CN,broken clouds
324,tshabong,-26.05,22.45,74.12,11,0,15.19,BW,clear sky
325,wanning,18.8003,110.3967,77.22,90,77,3.18,CN,broken clouds
326,saudarkrokur,65.7461,-19.6394,32.43,84,95,4.16,IS,overcast clouds
327,polyarnyy,69.1989,33.4478,24.03,87,100,3.38,RU,overcast clouds
328,leua,48.2156,18.6071,54.5,80,33,1.95,SK,scattered clouds
329,aykhal,66.0,111.5,2.75,98,89,9.86,RU,overcast clouds
330,adrar,20.5022,-10.0711,91.56,11,0,7.31,MR,clear sky
331,aghstafa,41.1189,45.4539,69.26,42,94,5.06,AZ,overcast clouds
332,petrovsk-zabaykal'skiy,51.273,108.843,21.31,65,49,2.68,RU,scattered clouds
333,kencong,-8.2833,113.3667,73.72,86,24,2.01,ID,few clouds
334,puerto leguizamo,-0.1934,-74.7819,86.45,61,100,3.8,CO,overcast clouds
335,katiola,8.1333,-5.1,86.63,63,16,4.79,CI,few clouds
336,carauari,-4.8828,-66.8958,96.48,40,96,5.41,BR,overcast clouds
337,namtsy,62.7161,129.6658,21.11,86,100,9.37,RU,overcast clouds
338,igrim,63.1906,64.4162,16.65,82,2,0.34,RU,clear sky
339,shahr-e babak,30.1165,55.1186,63.43,32,10,5.19,IR,clear sky
340,greymouth,-42.4667,171.2,41.83,92,47,4.9,NZ,scattered clouds
341,klyuchi,52.2667,79.1667,28.35,55,100,8.05,RU,overcast clouds
342,laizhou,37.1717,119.9214,59.63,52,58,7.45,CN,broken clouds
343,howard springs,-12.497,131.047,82.31,84,25,3.27,AU,scattered clouds
344,kawalu,-7.3817,108.2082,72.23,93,38,0.56,ID,scattered clouds
345,acarau,-2.8856,-40.12,87.8,56,7,24.7,BR,clear sky
346,saint-pierre,-21.3393,55.4781,76.68,73,0,6.91,RE,clear sky
347,turkmenbasy,40.0222,52.9552,61.57,94,75,9.22,TM,broken clouds
348,sosnovo-ozerskoye,52.5249,111.5418,20.25,45,47,16.62,RU,scattered clouds
349,mocimboa,-11.3167,40.35,78.28,84,3,9.69,MZ,clear sky
350,dongcun,36.7767,121.1597,59.14,66,38,1.83,CN,scattered clouds
351,rolla,37.9514,-91.7713,45.52,76,100,8.05,US,overcast clouds
352,el dorado,38.7666,-120.5177,54.68,48,0,4.52,US,clear sky
353,fortaleza,-3.7227,-38.5247,87.93,56,20,23.02,BR,few clouds
354,boyolangu,-8.1181,111.8935,74.21,89,42,3.53,ID,scattered clouds
355,goz beida,13.95,20.55,89.82,26,7,3.51,TD,clear sky
356,harper,4.375,-7.7169,79.47,82,39,8.46,LR,scattered clouds
357,ballina,-28.8667,153.5667,54.79,76,93,4.81,AU,overcast clouds
358,lauro muller,-28.3928,-49.3967,73.8,75,100,2.01,BR,moderate rain
359,bei'an,24.5399,109.533,70.38,71,72,4.16,CN,broken clouds
360,shenjiamen,29.9576,122.298,66.54,60,7,6.46,CN,clear sky
361,ulanhot,46.0833,122.0833,39.27,43,97,8.23,CN,overcast clouds
362,conceicao da barra,-18.5933,-39.7322,84.13,62,82,11.25,BR,broken clouds
363,jabat,7.75,168.9751,82.81,78,88,14.83,MH,moderate rain
364,wailua homesteads,22.0669,-159.378,70.23,77,0,9.22,US,clear sky
365,novoagansk,61.9449,76.6625,11.34,91,41,6.78,RU,scattered clouds
366,zheshart,62.0731,49.5733,24.21,82,99,9.37,RU,overcast clouds
367,la sarre,48.8002,-79.1996,31.19,68,100,13.2,CA,overcast clouds
368,guerrero negro,27.9769,-114.0611,70.48,60,0,16.04,MX,clear sky
369,sitia,35.2,26.0986,74.98,82,9,4.41,GR,clear sky
370,colon,9.3592,-79.9014,79.92,84,70,5.01,PA,light rain
371,mckinleyville,40.9465,-124.1006,50.85,84,0,0.0,US,clear sky
372,farafangana,-22.8167,47.8333,75.31,87,78,12.15,MG,light rain
373,manokwari,-0.8667,134.0833,77.9,83,100,3.87,ID,overcast clouds
374,port lincoln,-34.7333,135.8667,49.66,77,22,3.44,AU,few clouds
375,novo aripuana,-5.1206,-60.3797,105.15,21,55,4.23,BR,broken clouds
376,as sulayyil,20.4607,45.5779,82.65,42,100,9.4,SA,overcast clouds
377,batouri,4.4333,14.3667,70.81,93,16,2.1,CM,few clouds
378,cananeia,-25.0147,-47.9267,77.67,86,93,8.23,BR,light rain
379,mahanje,-9.9333,35.3333,76.37,42,81,5.23,TZ,broken clouds
380,archangelos,36.2149,28.1149,72.3,81,93,2.59,GR,overcast clouds
381,el salto,20.3333,-104.5,76.5,60,57,2.55,MX,light rain
382,luganville,-15.5333,167.1667,74.98,86,66,6.29,VU,broken clouds
383,ambon,-3.6954,128.1814,77.88,95,20,5.75,ID,few clouds
384,sao miguel do araguaia,-13.275,-50.1628,97.93,28,44,5.14,BR,scattered clouds
385,mogadishu,2.0371,45.3438,81.32,79,74,11.97,SO,broken clouds
386,monrovia,6.3005,-10.7969,82.17,82,60,6.2,LR,light rain
387,raduzhny,62.0961,77.475,12.83,91,75,7.99,RU,broken clouds
388,susanville,40.4163,-120.653,37.81,52,0,4.61,US,clear sky
389,yuzhno-kurilsk,44.0306,145.8556,52.38,87,99,7.14,RU,overcast clouds
390,auterive,43.351,1.478,63.9,65,18,15.19,FR,few clouds
391,castillos,-34.1667,-53.8333,73.8,67,51,7.07,UY,broken clouds
392,okha,53.5739,142.9478,33.62,96,96,10.13,RU,light snow
393,selfoss,63.9331,-20.9971,41.04,70,98,7.0,IS,overcast clouds
394,puerto deseado,-47.7503,-65.8938,58.46,44,86,30.58,AR,overcast clouds
395,peace river,56.2501,-117.286,32.31,69,75,14.97,CA,broken clouds
396,rabo de peixe,37.8,-25.5833,66.97,99,20,12.66,PT,few clouds
397,baie-comeau,49.2168,-68.1489,53.28,76,100,14.97,CA,overcast clouds
398,kailua-kona,19.6406,-155.9956,81.59,75,20,8.01,US,few clouds
399,mountain home,43.133,-115.6912,35.42,64,0,17.27,US,clear sky
400,nova lima,-19.9856,-43.8467,85.3,66,100,5.93,BR,overcast clouds
401,warrnambool,-38.3833,142.4833,43.43,87,69,7.52,AU,broken clouds
402,abadan,30.3392,48.3043,73.35,35,0,4.61,IR,clear sky
403,sengiley,53.9622,48.7944,33.87,99,100,13.82,RU,snow
404,marialva,-23.485,-51.7917,78.49,75,94,10.69,BR,overcast clouds
405,sola,-13.8833,167.55,78.91,79,59,5.61,VU,broken clouds
406,bikenibeu village,1.3673,173.1241,80.56,89,20,2.3,KI,few clouds
407,severo-yeniseyskiy,60.3725,93.0408,15.58,81,100,15.99,RU,overcast clouds
408,atar,20.5169,-13.0499,96.06,11,0,7.85,MR,clear sky
409,chernyshevskiy,63.0128,112.4714,18.68,86,80,11.1,RU,light snow
410,adam,22.3756,57.5233,83.19,43,96,2.57,OM,overcast clouds
411,shebekino,50.4097,36.9136,47.62,80,100,29.57,RU,overcast clouds
412,douz,33.4663,9.0203,79.29,29,85,6.38,TN,overcast clouds
413,iquique,-20.2208,-70.1431,69.84,69,78,7.4,CL,broken clouds
414,vernon,50.2581,-119.2691,34.61,59,3,4.61,CA,clear sky
415,thaba-tseka,-29.522,28.6084,46.96,78,33,11.54,LS,scattered clouds
416,laojunmiao,39.8333,97.7333,43.61,36,57,0.76,CN,broken clouds
417,chanderi,24.7167,78.1333,70.47,34,84,1.28,IN,broken clouds
418,callao,-12.0667,-77.15,75.49,57,40,13.8,PE,scattered clouds
419,urangan,-25.3,152.9,67.44,65,2,17.38,AU,clear sky
420,dubbo,-32.25,148.6167,50.13,71,21,8.05,AU,few clouds
421,coahuayana de hidalgo,18.7,-103.6583,87.22,66,93,2.57,MX,overcast clouds
422,yankton,42.8711,-97.3973,25.12,86,100,11.5,US,snow
423,paya,18.25,-70.3,90.25,56,18,7.02,DO,few clouds
424,dunedin,-45.8742,170.5036,46.8,71,49,4.05,NZ,scattered clouds
425,porto novo,6.4965,2.6036,82.96,71,18,7.14,BJ,few clouds
426,okotoks,50.7289,-113.9828,28.53,79,99,7.31,CA,overcast clouds
427,rongelap,11.1635,166.8941,83.03,77,58,13.06,MH,broken clouds
428,manicore,-5.8092,-61.3003,103.03,23,99,5.41,BR,overcast clouds
429,traralgon,-38.1833,146.5333,45.19,96,100,1.21,AU,overcast clouds
430,lodja,-3.4833,23.4333,72.0,90,57,0.45,CD,broken clouds
431,san matias,-16.3667,-58.4,103.84,25,86,12.64,BO,overcast clouds
432,tazacorte,28.629,-17.9293,75.15,86,40,5.01,ES,scattered clouds
433,khandyga,62.6667,135.6,5.02,93,84,3.74,RU,broken clouds
434,alik ghund,30.4896,67.5226,51.3,55,75,1.12,PK,broken clouds
435,naifaru,5.4444,73.3657,82.49,77,43,8.32,MV,scattered clouds
436,sao joao da barra,-21.6403,-41.0511,82.49,85,100,9.91,BR,overcast clouds
437,kaa-khem,51.6833,94.7333,25.41,39,2,4.52,RU,clear sky
438,prokop'yevsk,53.9059,86.719,20.77,73,61,3.56,RU,broken clouds
439,allapalli,19.4167,80.0667,66.33,67,3,2.39,IN,clear sky
440,neiafu,-18.65,-173.9833,75.88,83,75,11.5,TO,broken clouds
441,road town,18.4167,-64.6167,84.29,79,75,13.8,VG,light rain
442,weno,7.4515,151.8468,80.55,94,100,0.0,FM,overcast clouds
443,kasongo-lunda,-6.4667,16.8167,73.33,92,94,0.87,CD,overcast clouds
444,reyes,-14.3167,-67.3833,95.83,39,99,9.48,BO,overcast clouds
445,lautoka,-17.6167,177.4667,73.26,88,20,0.0,FJ,few clouds
446,galle,6.0367,80.217,78.17,86,97,4.0,LK,moderate rain
447,yulinshi,38.2906,109.7494,56.08,48,6,3.4,CN,clear sky
448,flying fish cove,-10.4217,105.6791,78.48,83,75,9.22,CX,broken clouds
449,arrifes,37.7667,-25.7,65.91,72,20,12.66,PT,few clouds
450,nantucket,41.2835,-70.0995,75.34,73,0,13.8,US,clear sky
451,margate,51.3813,1.3862,56.3,85,81,8.99,GB,light rain
452,cidreira,-30.1811,-50.2056,74.62,73,100,11.88,BR,overcast clouds
453,nova vicosa,-17.8919,-39.3719,80.76,73,100,12.15,BR,overcast clouds
454,tataouine,32.9297,10.4518,74.97,36,51,6.06,TN,broken clouds
455,natal,-5.795,-35.2094,88.02,55,40,19.57,BR,scattered clouds
456,ago-are,8.5,3.4167,81.91,61,73,3.62,NG,broken clouds
457,touros,-5.1989,-35.4608,84.34,60,17,17.87,BR,few clouds
458,farmington,36.7281,-108.2187,64.24,65,75,3.44,US,broken clouds
459,adjumani,3.3779,31.7909,67.82,97,76,2.3,UG,broken clouds
460,kenai,60.5544,-151.2583,35.15,97,100,5.75,US,overcast clouds
461,al kharijah,25.4514,30.5464,82.89,31,0,10.42,EG,clear sky
462,sao vicente,-23.9631,-46.3919,90.27,62,100,9.22,BR,light rain
463,puerto baquerizo moreno,-0.9,-89.6,79.79,74,75,13.8,EC,broken clouds
464,baoro,5.6667,15.9667,71.94,84,37,4.83,CF,scattered clouds
465,burgas,42.5061,27.4678,69.91,78,92,8.05,BG,overcast clouds
466,belel,7.05,14.4333,66.27,69,26,3.31,CM,scattered clouds
467,luanda,-8.8368,13.2343,80.6,78,40,13.8,AO,scattered clouds
468,san felipe,10.3399,-68.7425,84.9,72,83,2.64,VE,broken clouds
469,whakatane,-37.9585,176.9854,44.51,91,99,5.01,NZ,overcast clouds
470,novoishimskiy,53.1981,66.7694,30.69,97,100,12.21,KZ,light snow
471,gisborne,-38.6533,178.0042,49.37,69,78,4.59,NZ,broken clouds
472,suining,30.508,105.5733,64.0,77,100,1.81,CN,overcast clouds
473,trincomalee,8.5711,81.2335,77.32,85,100,0.92,LK,light rain
474,civril,38.3014,29.7386,63.01,54,12,1.66,TR,few clouds
475,cururupu,-1.8283,-44.8683,89.85,52,28,8.66,BR,scattered clouds
476,nayoro,44.3506,142.4578,44.71,94,100,2.64,JP,overcast clouds
477,trairi,-3.2778,-39.2689,86.04,52,6,18.01,BR,clear sky
478,brookings,44.3114,-96.7984,27.12,83,75,6.91,US,broken clouds
479,santa maria,-29.6842,-53.8069,73.69,88,100,8.03,BR,light rain
480,rio grande,-32.035,-52.0986,80.71,86,90,8.75,BR,overcast clouds
481,faya-largeau,17.9257,19.1043,87.57,14,79,11.65,TD,broken clouds
482,peniche,39.3558,-9.3811,68.29,86,90,23.06,PT,overcast clouds
483,alice springs,-23.7,133.8833,54.95,13,61,5.75,AU,broken clouds
484,zuyevka,58.405,51.1335,25.83,78,93,11.43,RU,overcast clouds
485,pokhara,28.2333,83.9833,61.99,70,84,5.48,NP,broken clouds
486,demre,36.2537,29.9777,68.18,78,98,1.81,TR,overcast clouds
487,masterton,-40.9597,175.6575,42.94,63,70,2.06,NZ,broken clouds
488,bataipora,-22.2953,-53.2711,90.91,46,89,10.96,BR,overcast clouds
489,pazardzhik,42.2,24.3333,67.64,49,90,4.7,BG,overcast clouds
490,voranava,54.1483,25.3131,35.92,88,100,6.26,BY,overcast clouds
491,vizinga,61.0749,50.1031,25.27,69,100,8.88,RU,overcast clouds
492,goundam,16.4145,-3.6708,95.29,8,10,5.5,ML,clear sky
493,tasqala,51.1167,50.3167,46.83,98,100,11.32,KZ,light rain
494,portland,45.5234,-122.6762,47.88,58,0,10.0,US,clear sky
495,galliano,29.4422,-90.2992,84.2,45,40,6.91,US,scattered clouds
496,port pirie,-33.1833,138.0167,54.28,78,84,6.15,AU,broken clouds
497,kisangani,0.5167,25.2,76.42,72,79,1.79,CD,broken clouds
498,mermoz boabab,14.7065,-17.4758,88.36,66,0,9.22,SN,clear sky
499,chibougamau,49.9168,-74.3659,33.42,86,75,11.5,CA,light snow
500,kruisfontein,-34.0033,24.7314,52.45,69,99,16.67,ZA,light rain
501,nicoya,10.1483,-85.452,81.54,80,99,2.75,CR,overcast clouds
502,labuan bajo,-8.4964,119.8877,81.36,72,63,1.97,ID,broken clouds
503,strelka,58.0728,93.0344,23.52,73,100,7.47,RU,overcast clouds
504,taro,-8.3862,115.28,71.6,96,72,4.25,ID,broken clouds
505,saldanha,-33.0117,17.9442,60.85,64,0,30.09,ZA,clear sky
506,yangon,16.8053,96.1561,80.56,94,40,4.61,MM,scattered clouds
507,kupjansk,49.7209,37.5998,53.02,68,89,30.36,UA,overcast clouds
508,rouissat,31.9243,5.3502,87.87,12,40,4.61,DZ,scattered clouds
509,ketchikan,55.3422,-131.6461,35.58,86,0,3.44,US,clear sky
510,malpica,43.3228,-8.8105,61.34,75,100,32.19,ES,overcast clouds
511,sisimiut,66.9395,-53.6735,24.4,78,82,10.54,GL,broken clouds
512,gizo,-8.103,156.8419,80.82,81,87,9.66,SB,light rain
513,revda,56.801,59.9303,24.85,94,100,10.54,RU,light snow
514,mora,11.0461,14.1401,85.42,27,11,4.38,CM,few clouds
515,chelak,39.9203,66.8611,61.56,38,100,4.05,UZ,overcast clouds
516,juneau,58.3019,-134.4197,37.09,97,75,0.0,US,broken clouds
517,layyah,30.9613,70.939,78.6,28,66,5.55,PK,broken clouds
518,vanersborg,58.3807,12.3234,36.77,80,100,9.22,SE,overcast clouds
519,kuqa,41.7278,82.9364,55.56,34,2,3.89,CN,clear sky
520,st. john's,47.5649,-52.7093,58.55,98,100,14.97,CA,mist
521,vicosa,-20.7539,-42.8819,80.85,66,100,11.72,BR,overcast clouds
522,tofol,5.3248,163.0078,83.12,72,51,6.96,FM,broken clouds
523,kununurra,-15.7667,128.7333,66.18,63,72,0.0,AU,broken clouds
524,knyaze-volkonskoye,48.4642,135.4567,35.01,44,14,3.0,RU,few clouds
525,takoradi,4.8845,-1.7554,79.59,80,18,6.24,GH,few clouds
526,cole harbour,44.6724,-63.4751,72.79,73,7,11.5,CA,clear sky
527,kurumkan,54.3,110.3,28.13,73,20,8.99,RU,few clouds
528,abu al matamir,30.9102,30.1744,77.49,70,2,7.11,EG,clear sky
529,isabela,6.7085,121.9711,82.18,74,67,4.29,PH,broken clouds
530,al jahra',29.3375,47.6581,81.63,25,66,6.06,KW,broken clouds
531,angaur state,6.906,134.13,82.56,73,100,4.94,PW,overcast clouds
532,inarajan village,13.2736,144.7484,83.37,95,98,12.57,GU,overcast clouds
533,aral,40.5156,81.2636,58.46,25,1,4.45,CN,clear sky
534,port blair,11.6667,92.75,77.04,100,40,2.3,IN,mist
535,lagos,6.5833,3.75,86.32,81,20,3.96,NG,few clouds
536,carutapera,-1.195,-46.02,88.61,59,12,13.67,BR,few clouds
537,santa elena de uairen,4.6167,-61.1333,85.53,41,90,8.46,VE,overcast clouds
538,dzuunharaa,48.8523,106.4579,24.84,69,39,7.85,MN,scattered clouds
539,conde,-7.2597,-34.9075,83.66,65,75,14.97,BR,broken clouds
540,chakari,-18.0629,29.8925,84.13,14,1,4.47,ZW,clear sky
541,zaozersk,69.4005,32.4476,21.33,93,100,2.71,RU,overcast clouds
542,kone,-21.0595,164.8658,68.94,85,61,7.85,NC,broken clouds
543,labrador city,52.9463,-66.9114,39.11,87,75,17.27,CA,broken clouds
544,akureyri,65.6835,-18.0878,35.53,75,0,0.0,IS,clear sky
545,uliastay,47.7417,96.8444,28.26,41,21,0.83,MN,few clouds
546,ar rutbah,33.0381,40.2848,76.91,26,94,10.2,IQ,overcast clouds
547,selibaby,15.159,-12.1829,98.08,20,21,2.24,MR,few clouds
548,constantia,44.1833,28.65,65.08,34,65,3.18,RO,broken clouds
549,altay,47.8667,88.1167,28.6,41,67,7.67,CN,broken clouds
550,nikolayevsk-on-amure,53.1406,140.73,28.38,80,73,4.97,RU,broken clouds
551,itoman,26.1247,127.6694,71.62,64,3,3.44,JP,clear sky
552,sogndal,61.2283,7.1003,32.38,68,9,5.75,NO,clear sky
553,broken hill,-31.95,141.4333,65.37,16,38,7.65,AU,scattered clouds
554,callaway,30.153,-85.5699,83.98,54,0,8.05,US,clear sky
555,vikulovo,56.8167,70.6107,11.28,96,17,4.72,RU,few clouds
556,markala,13.7021,-6.0659,94.05,21,51,4.81,ML,broken clouds
557,kolyshley,52.7005,44.5367,48.79,98,100,13.18,RU,overcast clouds
558,iron river,46.0927,-88.6423,38.55,58,95,7.18,US,overcast clouds
559,naze,28.3667,129.4833,65.32,56,25,15.88,JP,scattered clouds
560,kapa'a,22.0752,-159.319,71.58,77,0,9.22,US,clear sky
561,rafraf,37.1904,10.1837,71.91,69,52,4.45,TN,broken clouds
562,boyalik,41.2634,28.6314,70.77,78,2,9.1,TR,light rain
563,lalmohan,22.3384,90.7419,75.99,69,5,7.9,BD,clear sky
564,paita,-5.0892,-81.1144,66.7,93,85,17.85,PE,overcast clouds
565,an nuhud,12.7,28.4333,87.04,33,91,10.71,SD,overcast clouds
566,al hasakah,36.5024,40.7477,78.03,34,2,4.61,SY,clear sky
567,madera,37.1666,-119.8343,64.45,39,32,3.76,US,scattered clouds
568,kourou,5.1552,-52.6478,93.25,62,51,12.24,GF,broken clouds
569,freetown,8.484,-13.2299,80.31,89,75,5.75,SL,light rain
570,port douglas,-16.4833,145.4667,74.07,74,72,11.72,AU,broken clouds
571,lufilufi,-13.8745,-171.5986,74.98,84,79,17.52,WS,light rain
572,nuku'alofa,-21.1333,-175.2,71.94,83,75,13.8,TO,broken clouds
573,elk city,35.412,-99.4043,43.02,87,100,9.22,US,overcast clouds
574,san rafael del sur,11.8485,-86.4384,86.97,84,99,7.2,NI,overcast clouds
575,kerikeri,-35.2268,173.9474,54.91,90,100,3.0,NZ,moderate rain
576,san luis,-33.295,-66.3356,84.65,27,35,19.06,AR,scattered clouds
577,borogontsy,62.6683,131.1683,17.71,90,99,9.66,RU,overcast clouds
578,viedma,-40.8135,-62.9967,80.78,15,100,28.83,AR,overcast clouds
579,dalby,-27.1833,151.2667,53.73,77,0,7.54,AU,clear sky
580,al hazm,16.1641,44.7769,78.46,41,96,1.41,YE,overcast clouds
